{"results":[{"fsq_id":"4ed022f89a52262b82749115","categories":[{"id":16032,"name":"Park","icon":{"prefix":"https://ss3.4sqi.net/img/categories_v2/parks_outdoors/park_","suffix":".png"}}],"chains":[],"distance":312,"geocodes":{"main":{"latitude":39.704233,"longitude":-105.08234},"roof":{"latitude":39.704233,"longitude":-105.08234}},"link":"/v3/places/4ed022f89a52262b82749115","location":{"census_block":"080590117014002","country":"US","cross_street":"","dma":"Denver","formatted_address":"Lakewood, CO 80226","locality":"Lakewood","neighborhood":["Lakewood Center"],"postcode":"80226","region":"CO"},"name":"Bell Mar Park","related_places":{},"timezone":"America/Denver"},{"fsq_id":"55f4479f498ec2e37d6a5a6c","categories":[{"id":16032,"name":"Park","icon":{"prefix":"https://ss3.4sqi.net/img/categories_v2/parks_outdoors/park_","suffix":".png"}}],"chains":[],"distance":622,"geocodes":{"main":{"latitude":39.708467,"longitude":-105.080961},"roof":{"latitude":39.708467,"longitude":-105.080961}},"link":"/v3/places/55f4479f498ec2e37d6a5a6c","location":{"census_block":"080590118071003","country":"US","cross_street":"","dma":"Denver","formatted_address":"Lakewood, CO 80226","locality":"Lakewood","neighborhood":["Belmar District"],"postcode":"80226","region":"CO"},"name":"Belmar Park Running Trail","related_places":{},"timezone":"America/Denver"},{"fsq_id":"550e0c1b498e069e34c85384","categories":[{"id":16032,"name":"Park","icon":{"prefix":"https://ss3.4sqi.net/img/categories_v2/parks_outdoors/park_","suffix":".png"}}],"chains":[],"distance":964,"geocodes":{"main":{"latitude":39.694795,"longitude":-105.075485}},"link":"/v3/places/550e0c1b498e069e34c85384","location":{"census_block":"080590118034001","country":"US","cross_street":"","dma":"Denver","formatted_address":"Lakewood, CO 80232","locality":"Lakewood","postcode":"80232","region":"CO"},"name":"Skate Street Skate Park","related_places":{},"timezone":"America/Denver"},{"fsq_id":"cc93db1884d045d852171660","categories":[{"id":16032,"name":"Park","icon":{"prefix":"https://ss3.4sqi.net/img/categories_v2/parks_outdoors/park_","suffix":".png"}}],"chains":[],"distance":362,"geocodes":{"main":{"latitude":39.704542,"longitude":-105.082536},"roof":{"latitude":39.704542,"longitude":-105.082536}},"link":"/v3/places/cc93db1884d045d852171660","location":{"address":"777 S Wadsworth Blvd","census_block":"080590117014002","country":"US","dma":"Denver","formatted_address":"777 S Wadsworth Blvd, Lakewood, CO 80226","locality":"Lakewood","neighborhood":["Lakewood Center"],"postcode":"80226","region":"CO"},"name":"Lakewood Recreation Department","related_places":{}},{"fsq_id":"4c4080bace54e21ee094091a","categories":[{"id":16033,"name":"Dog Park","icon":{"prefix":"https://ss3.4sqi.net/img/categories_v2/parks_outdoors/dogrun_","suffix":".png"}}],"chains":[],"distance":364,"geocodes":{"main":{"latitude":39.704692,"longitude":-105.075327},"roof":{"latitude":39.704692,"longitude":-105.075327}},"link":"/v3/places/4c4080bace54e21ee094091a","location":{"address":"501 S Teller Ct","address_extended":"# 549","census_block":"080590118082000","country":"US","cross_street":"","dma":"Denver","formatted_address":"501 S Teller Ct, Lakewood, CO 80226","locality":"Lakewood","neighborhood":["Belmar District"],"postcode":"80226","region":"CO"},"name":"Belmar Dog Park","related_places":{},"timezone":"America/Denver"}],"context":{"geo_bounds":{"circle":{"center":{"latitude":39.703014,"longitude":-105.078792},"radius":1000}}}}