{"results":[{"fsq_id":"4dc7303b52b1e8f9f7ffb2c7","categories":[{"id":13145,"name":"Fast Food Restaurant","icon":{"prefix":"https://ss3.4sqi.net/img/categories_v2/food/fastfood_","suffix":".png"}}],"chains":[{"id":"f2ee844c-8417-4c9f-80ff-e79f1c44cad4","name":"Firehouse Subs"}],"distance":241,"geocodes":{"main":{"latitude":39.704777,"longitude":-105.08075},"roof":{"latitude":39.704777,"longitude":-105.08075}},"link":"/v3/places/4dc7303b52b1e8f9f7ffb2c7","location":{"address":"650 S Wadsworth Blvd","address_extended":"Ste I","census_block":"080590118082003","country":"US","cross_street":"","dma":"Denver","formatted_address":"650 S Wadsworth Blvd, Lakewood, CO 80226","locality":"Lakewood","neighborhood":["Lakewood Center"],"postcode":"80226","region":"CO"},"name":"Firehouse Subs","related_places":{},"timezone":"America/Denver"},{"fsq_id":"4b536f57f964a520c79c27e3","categories":[{"id":13338,"name":"Seafood Restaurant","icon":{"prefix":"https://ss3.4sqi.net/img/categories_v2/food/seafood_","suffix":".png"}},{"id":13068,"name":"American Restaurant","icon":{"prefix":"https://ss3.4sqi.net/img/categories_v2/food/default_","suffix":".png"}}],"chains":[{"id":"ab4b00e0-d68a-012e-5619-003048cad9da","name":"Red Lobster"}],"distance":177,"geocodes":{"main":{"latitude":39.703307,"longitude":-105.080834},"roof":{"latitude":39.703307,"longitude":-105.080834}},"link":"/v3/places/4b536f57f964a520c79c27e3","location":{"address":"810 S Wadsworth Blvd","census_block":"080590118081002","country":"US","cross_street":"","dma":"Denver","formatted_address":"810 S Wadsworth Blvd, Lakewood, CO 80226","locality":"Lakewood","neighborhood":["Lakewood Center"],"postcode":"80226","region":"CO"},"name":"Red Lobster","related_places":{},"timezone":"America/Denver"},{"fsq_id":"4ecabda2722efb00f785f04d","categories":[{"id":13145,"name":"Fast Food Restaurant","icon":{"prefix":"https://ss3.4sqi.net/img/categories_v2/food/fastfood_","suffix":".png"}},{"id":13002,"name":"Bakery","icon":{"prefix":"https://ss3.4sqi.net/img/categories_v2/food/bakery_","suffix":".png"}},{"id":13032,"name":"Cafes, Coffee, and Tea Houses","icon":{"prefix":"https://ss3.4sqi.net/img/categories_v2/food/default_","suffix":".png"}}],"chains":[{"id":"329bcac7-1481-4df4-9789-004a0afb128e","name":"Panera Bread"}],"distance":282,"geocodes":{"main":{"latitude":39.705038,"longitude":-105.080722},"roof":{"latitude":39.705038,"longitude":-105.080722}},"link":"/v3/places/4ecabda2722efb00f785f04d","location":{"address":"650 S Wadsworth Blvd","address_extended":"Ste 110","census_block":"080590118082003","country":"US","cross_street":"","dma":"Denver","formatted_address":"650 S Wadsworth Blvd, Lakewood, CO 80226","locality":"Lakewood","neighborhood":["Lakewood Center"],"postcode":"80226","region":"CO"},"name":"Panera Bread","related_places":{},"timezone":"America/Denver"},{"fsq_id":"5345ec42498e59ad4acb2484","categories":[{"id":13145,"name":"Fast Food Restaurant","icon":{"prefix":"https://ss3.4sqi.net/img/categories_v2/food/fastfood_","suffix":".png"}},{"id":13068,"name":"American Restaurant","icon":{"prefix":"https://ss3.4sqi.net/img/categories_v2/food/default_","suffix":".png"}}],"chains":[{"id":"16d16020-992b-0132-fd75-7a163eb2a6fc","name":"Chick-Fil-A"}],"distance":428,"geocodes":{"main":{"latitude":39.70671,"longitude":-105.080234},"roof":{"latitude":39.70671,"longitude":-105.080234}},"link":"/v3/places/5345ec42498e59ad4acb2484","location":{"address":"565 S Vance St","census_block":"080590118071014","country":"US","cross_street":"","dma":"Denver","formatted_address":"565 S Vance St, Lakewood, CO 80226","locality":"Lakewood","neighborhood":["Lakewood Center"],"postcode":"80226","region":"CO"},"name":"Chick-Fil-A","related_places":{},"timezone":"America/Denver"},{"fsq_id":"5aca5b6cd69ed059cc126196","categories":[{"id":13003,"name":"Bar","icon":{"prefix":"https://ss3.4sqi.net/img/categories_v2/nightlife/pub_","suffix":".png"}},{"id":13307,"name":"Tex-Mex Restaurant","icon":{"prefix":"https://ss3.4sqi.net/img/categories_v2/food/mexican_","suffix":".png"}}],"chains":[],"distance":488,"geocodes":{"main":{"latitude":39.70735,"longitude":-105.080011}},"link":"/v3/places/5aca5b6cd69ed059cc126196","location":{"address":"499 S Vance St","census_block":"080590118071003","country":"US","cross_street":"","dma":"Denver","formatted_address":"499 S Vance St, Lakewood, CO 80226","locality":"Lakewood","neighborhood":["Lakewood Center"],"postcode":"80226","region":"CO"},"name":"Chuy's","related_places":{},"timezone":"America/Denver"},{"fsq_id":"56f9cdcf498e2294339ce2c9","categories":[{"id":13003,"name":"Bar","icon":{"prefix":"https://ss3.4sqi.net/img/categories_v2/nightlife/pub_","suffix":".png"}},{"id":13031,"name":"Burger Joint","icon":{"prefix":"https://ss3.4sqi.net/img/categories_v2/food/burger_","suffix":".png"}},{"id":13068,"name":"American Restaurant","icon":{"prefix":"https://ss3.4sqi.net/img/categories_v2/food/default_","suffix":".png"}}],"chains":[],"distance":603,"geocodes":{"main":{"latitude":39.708228,"longitude":-105.077084},"roof":{"latitude":39.708228,"longitude":-105.077084}},"link":"/v3/places/56f9cdcf498e2294339ce2c9","location":{"address":"445 S Teller St","census_block":"080590118071005","country":"US","cross_street":"","dma":"Denver","formatted_address":"445 S Teller St, Lakewood, CO 80226","locality":"Lakewood","neighborhood":["Belmar District"],"postcode":"80226","region":"CO"},"name":"Tstreet Roadhouse","related_places":{},"timezone":"America/Denver"},{"fsq_id":"4b7d8a82f964a5207ac52fe3","categories":[{"id":13145,"name":"Fast Food Restaurant","icon":{"prefix":"https://ss3.4sqi.net/img/categories_v2/food/fastfood_","suffix":".png"}}],"chains":[{"id":"16cffad0-992b-0132-fd75-7a163eb2a6fc","name":"Carl's Jr."}],"distance":559,"geocodes":{"main":{"latitude":39.707386,"longitude":-105.081921},"roof":{"latitude":39.707386,"longitude":-105.081921}},"link":"/v3/places/4b7d8a82f964a5207ac52fe3","location":{"address":"497 S Wadsworth Blvd","census_block":"080590117014000","country":"US","dma":"Denver","formatted_address":"497 S Wadsworth Blvd, Lakewood, CO 80226","locality":"Lakewood","neighborhood":["Belmar District"],"postcode":"80226","region":"CO"},"name":"Carl's Jr.","related_places":{},"timezone":"America/Denver"},{"fsq_id":"4bc4cca474a9a593625fd6f6","categories":[{"id":13064,"name":"Pizzeria","icon":{"prefix":"https://ss3.4sqi.net/img/categories_v2/food/pizza_","suffix":".png"}}],"chains":[],"distance":592,"geocodes":{"main":{"latitude":39.698271,"longitude":-105.081075},"roof":{"latitude":39.698271,"longitude":-105.081075}},"link":"/v3/places/4bc4cca474a9a593625fd6f6","location":{"address":"1000 S Wadsworth Blvd","address_extended":"Unit D","census_block":"080590118063006","country":"US","dma":"Denver","formatted_address":"1000 S Wadsworth Blvd, Lakewood, CO 80226","locality":"Lakewood","neighborhood":["Lakewood Center"],"postcode":"80226","region":"CO"},"name":"Johnny's New York Pizza & Pasta","related_places":{},"timezone":"America/Denver"},{"fsq_id":"54d78f9f498eae7f4aae471d","categories":[{"id":13034,"name":"Café","icon":{"prefix":"https://ss3.4sqi.net/img/categories_v2/food/cafe_","suffix":".png"}},{"id":13035,"name":"Coffee Shop","icon":{"prefix":"https://ss3.4sqi.net/img/categories_v2/food/coffeeshop_","suffix":".png"}},{"id":13148,"name":"French Restaurant","icon":{"prefix":"https://ss3.4sqi.net/img/categories_v2/food/french_","suffix":".png"}}],"chains":[],"distance":682,"geocodes":{"main":{"latitude":39.709332,"longitude":-105.078801},"roof":{"latitude":39.709332,"longitude":-105.078801}},"link":"/v3/places/54d78f9f498eae7f4aae471d","location":{"address":"7323 W Alaska Dr","census_block":"080590118071001","country":"US","cross_street":"","dma":"Denver","formatted_address":"7323 W Alaska Dr, Lakewood, CO 80226","locality":"Lakewood","neighborhood":["Belmar District"],"postcode":"80226","region":"CO"},"name":"The French Press","related_places":{},"timezone":"America/Denver"},{"fsq_id":"53ab16b2498e5a0355aec715","categories":[{"id":13334,"name":"Sandwich Restaurant","icon":{"prefix":"https://ss3.4sqi.net/img/categories_v2/food/deli_","suffix":".png"}}],"chains":[],"distance":662,"geocodes":{"main":{"latitude":39.708923,"longitude":-105.076703},"roof":{"latitude":39.708923,"longitude":-105.076703}},"link":"/v3/places/53ab16b2498e5a0355aec715","location":{"address":"420 S Teller St","census_block":"080590118071006","country":"US","cross_street":"Alaska Drive","dma":"Denver","formatted_address":"420 S Teller St (Alaska Drive), Lakewood, CO 80226","locality":"Lakewood","neighborhood":["Belmar District"],"postcode":"80226","region":"CO"},"name":"STACK Subs","related_places":{},"timezone":"America/Denver"},{"fsq_id":"4b7f0a4cf964a520361230e3","categories":[{"id":13145,"name":"Fast Food Restaurant","icon":{"prefix":"https://ss3.4sqi.net/img/categories_v2/food/fastfood_","suffix":".png"}},{"id":13099,"name":"Chinese Restaurant","icon":{"prefix":"https://ss3.4sqi.net/img/categories_v2/food/asian_","suffix":".png"}}],"chains":[{"id":"16e2ce50-992b-0132-fd75-7a163eb2a6fc","name":"Panda Express"}],"distance":468,"geocodes":{"main":{"latitude":39.706241,"longitude":-105.081969},"roof":{"latitude":39.706241,"longitude":-105.081969}},"link":"/v3/places/4b7f0a4cf964a520361230e3","location":{"address":"7660 W Virginia Ave","address_extended":"Unit D","census_block":"080590117014002","country":"US","cross_street":"at Wadsworth Blvd.","dma":"Denver","formatted_address":"7660 W Virginia Ave (at Wadsworth Blvd.), Lakewood, CO 80226","locality":"Lakewood","neighborhood":["Lakewood Center"],"postcode":"80226","region":"CO"},"name":"Panda Express","related_places":{},"timezone":"America/Denver"},{"fsq_id":"4bc3baec461576b0251c7f32","categories":[{"id":13145,"name":"Fast Food Restaurant","icon":{"prefix":"https://ss3.4sqi.net/img/categories_v2/food/fastfood_","suffix":".png"}}],"chains":[{"id":"f8567cff-cda7-4bed-81e1-ee4517377bdc","name":"Wingstop"}],"distance":633,"geocodes":{"main":{"latitude":39.69776,"longitude":-105.082202},"roof":{"latitude":39.69776,"longitude":-105.082202}},"link":"/v3/places/4bc3baec461576b0251c7f32","location":{"address":"1057 S Wadsworth Blvd","address_extended":"Ste 80","census_block":"080590117011023","country":"US","cross_street":"","dma":"Denver","formatted_address":"1057 S Wadsworth Blvd, Lakewood, CO 80226","locality":"Lakewood","neighborhood":["Lakewood Center"],"postcode":"80226","region":"CO"},"name":"Wingstop","related_places":{},"timezone":"America/Denver"},{"fsq_id":"4cbe5933020d46881e365c38","categories":[{"id":13276,"name":"Sushi Restaurant","icon":{"prefix":"https://ss3.4sqi.net/img/categories_v2/food/sushi_","suffix":".png"}}],"chains":[],"distance":626,"geocodes":{"main":{"latitude":39.708526,"longitude":-105.077128},"roof":{"latitude":39.708526,"longitude":-105.077128}},"link":"/v3/places/4cbe5933020d46881e365c38","location":{"address":"433 S Teller St","census_block":"080590118071005","country":"US","cross_street":"at W Alaska Dr","dma":"Denver","formatted_address":"433 S Teller St (at W Alaska Dr), Lakewood, CO 80226","locality":"Lakewood","neighborhood":["Belmar District"],"postcode":"80226","region":"CO"},"name":"Wasabi Sushi Bar","related_places":{},"timezone":"America/Denver"},{"fsq_id":"520ad81e498ef116e3fb784d","categories":[{"id":13072,"name":"Asian Restaurant","icon":{"prefix":"https://ss3.4sqi.net/img/categories_v2/food/asian_","suffix":".png"}},{"id":13377,"name":"Vegan and Vegetarian Restaurant","icon":{"prefix":"https://ss3.4sqi.net/img/categories_v2/food/vegetarian_","suffix":".png"}},{"id":13379,"name":"Vietnamese Restaurant","icon":{"prefix":"https://ss3.4sqi.net/img/categories_v2/food/vietnamese_","suffix":".png"}}],"chains":[],"distance":769,"geocodes":{"main":{"latitude":39.709359,"longitude":-105.074512},"roof":{"latitude":39.709359,"longitude":-105.074512}},"link":"/v3/places/520ad81e498ef116e3fb784d","location":{"address":"7057 W Alaska Dr","census_block":"080590118072000","country":"US","cross_street":"","dma":"Denver","formatted_address":"7057 W Alaska Dr, Lakewood, CO 80226","locality":"Lakewood","neighborhood":["Belmar District"],"postcode":"80226","region":"CO"},"name":"Pho Saigon Basil","related_places":{},"timezone":"America/Denver"},{"fsq_id":"4bb394c035f0c9b64796bc83","categories":[{"id":13199,"name":"Indian Restaurant","icon":{"prefix":"https://ss3.4sqi.net/img/categories_v2/food/indian_","suffix":".png"}}],"chains":[],"distance":652,"geocodes":{"main":{"latitude":39.708786,"longitude":-105.0771},"roof":{"latitude":39.708786,"longitude":-105.0771}},"link":"/v3/places/4bb394c035f0c9b64796bc83","location":{"address":"425 S Teller St","census_block":"080590118071005","country":"US","dma":"Denver","formatted_address":"425 S Teller St, Lakewood, CO 80226","locality":"Lakewood","neighborhood":["Belmar District"],"postcode":"80226","region":"CO"},"name":"Little India","related_places":{},"timezone":"America/Denver"},{"fsq_id":"4b6e33acf964a5204fb12ce3","categories":[{"id":13031,"name":"Burger Joint","icon":{"prefix":"https://ss3.4sqi.net/img/categories_v2/food/burger_","suffix":".png"}},{"id":13068,"name":"American Restaurant","icon":{"prefix":"https://ss3.4sqi.net/img/categories_v2/food/default_","suffix":".png"}},{"id":13383,"name":"Steakhouse","icon":{"prefix":"https://ss3.4sqi.net/img/categories_v2/food/steakhouse_","suffix":".png"}}],"chains":[],"distance":845,"geocodes":{"main":{"latitude":39.710393,"longitude":-105.076619},"roof":{"latitude":39.710393,"longitude":-105.076619}},"link":"/v3/places/4b6e33acf964a5204fb12ce3","location":{"address":"330 S Teller St","address_extended":"Bldg 3M1","census_block":"080590118071000","country":"US","cross_street":"","dma":"Denver","formatted_address":"330 S Teller St, Lakewood, CO 80226","locality":"Lakewood","neighborhood":["Belmar District"],"postcode":"80226","region":"CO"},"name":"Ted's Montana Grill","related_places":{},"timezone":"America/Denver"},{"fsq_id":"4eb43569d3e3644ca5ae6eb5","categories":[{"id":13064,"name":"Pizzeria","icon":{"prefix":"https://ss3.4sqi.net/img/categories_v2/food/pizza_","suffix":".png"}},{"id":13068,"name":"American Restaurant","icon":{"prefix":"https://ss3.4sqi.net/img/categories_v2/food/default_","suffix":".png"}}],"chains":[],"distance":708,"geocodes":{"main":{"latitude":39.709385,"longitude":-105.07956},"roof":{"latitude":39.709385,"longitude":-105.07956}},"link":"/v3/places/4eb43569d3e3644ca5ae6eb5","location":{"address":"7399 W Alaska Dr","census_block":"080590118071001","country":"US","dma":"Denver","formatted_address":"7399 W Alaska Dr, Lakewood, CO 80226","locality":"Lakewood","neighborhood":["Belmar District"],"postcode":"80226","region":"CO"},"name":"The Rock Wood Fired Pizza","related_places":{},"timezone":"America/Denver"},{"fsq_id":"4f511c1be4b041b23c9fe13b","categories":[{"id":13303,"name":"Mexican Restaurant","icon":{"prefix":"https://ss3.4sqi.net/img/categories_v2/food/mexican_","suffix":".png"}}],"chains":[],"distance":658,"geocodes":{"main":{"latitude":39.697294,"longitude":-105.081182},"roof":{"latitude":39.697294,"longitude":-105.081182}},"link":"/v3/places/4f511c1be4b041b23c9fe13b","location":{"address":"1080 S Wadsworth Blvd","census_block":"080590118063006","country":"US","cross_street":"","dma":"Denver","formatted_address":"1080 S Wadsworth Blvd, Lakewood, CO 80226","locality":"Lakewood","neighborhood":["Lakewood Center"],"postcode":"80226","region":"CO"},"name":"El Tapatio","related_places":{},"timezone":"America/Denver"},{"fsq_id":"4b6b1f59f964a5203ef42be3","categories":[{"id":13145,"name":"Fast Food Restaurant","icon":{"prefix":"https://ss3.4sqi.net/img/categories_v2/food/fastfood_","suffix":".png"}},{"id":13303,"name":"Mexican Restaurant","icon":{"prefix":"https://ss3.4sqi.net/img/categories_v2/food/mexican_","suffix":".png"}}],"chains":[{"id":"ab4c58e0-d68a-012e-5619-003048cad9da","name":"Chipotle Mexican Grill"}],"distance":858,"geocodes":{"main":{"latitude":39.710256,"longitude":-105.082144},"roof":{"latitude":39.710256,"longitude":-105.082144}},"link":"/v3/places/4b6b1f59f964a5203ef42be3","location":{"address":"355 S Wadsworth Blvd","address_extended":"Unit A","census_block":"080590117014000","country":"US","cross_street":"Alameda & Wadsworth","dma":"Denver","formatted_address":"355 S Wadsworth Blvd (Alameda & Wadsworth), Lakewood, CO 80226","locality":"Lakewood","neighborhood":["Lakewood Center"],"postcode":"80226","region":"CO"},"name":"Chipotle Mexican Grill","related_places":{},"timezone":"America/Denver"},{"fsq_id":"4a2ea322f964a52027981fe3","categories":[{"id":13099,"name":"Chinese Restaurant","icon":{"prefix":"https://ss3.4sqi.net/img/categories_v2/food/asian_","suffix":".png"}}],"chains":[{"id":"ab4c50a0-d68a-012e-5619-003048cad9da","name":"P.F. Chang's China Bistro"}],"distance":860,"geocodes":{"main":{"latitude":39.710761,"longitude":-105.077191},"roof":{"latitude":39.710761,"longitude":-105.077191}},"link":"/v3/places/4a2ea322f964a52027981fe3","location":{"address":"7210 W Alameda Ave","census_block":"080590118071001","country":"US","cross_street":"at Teller","dma":"Denver","formatted_address":"7210 W Alameda Ave (at Teller), Lakewood, CO 80226","locality":"Lakewood","neighborhood":["Belmar District"],"postcode":"80226","region":"CO"},"name":"P.F. Chang's China Bistro","related_places":{},"timezone":"America/Denver"},{"fsq_id":"52df122a11d21fef2b3801da","categories":[{"id":13031,"name":"Burger Joint","icon":{"prefix":"https://ss3.4sqi.net/img/categories_v2/food/burger_","suffix":".png"}}],"chains":[{"id":"97d3f1c8-2493-48d7-b915-e0375b522a94","name":"Smashburger"}],"distance":900,"geocodes":{"main":{"latitude":39.710477,"longitude":-105.082608},"roof":{"latitude":39.710613,"longitude":-105.082564}},"link":"/v3/places/52df122a11d21fef2b3801da","location":{"address":"7740 W Alameda Ave","address_extended":"Unit B","census_block":"080590117014000","country":"US","cross_street":"at S. Wadsworth Blvd.","dma":"Denver","formatted_address":"7740 W Alameda Ave (at S. Wadsworth Blvd.), Lakewood, CO 80226","locality":"Lakewood","neighborhood":["Lakewood Center"],"postcode":"80226","region":"CO"},"name":"Smashburger","related_places":{},"timezone":"America/Denver"},{"fsq_id":"5deef4374225e4000886ab57","categories":[{"id":13272,"name":"Ramen Restaurant","icon":{"prefix":"https://ss3.4sqi.net/img/categories_v2/food/ramen_","suffix":".png"}},{"id":13315,"name":"Noodle Restaurant","icon":{"prefix":"https://ss3.4sqi.net/img/categories_v2/food/ramen_","suffix":".png"}}],"chains":[],"distance":595,"geocodes":{"main":{"latitude":39.708223,"longitude":-105.076549},"roof":{"latitude":39.708223,"longitude":-105.076549}},"link":"/v3/places/5deef4374225e4000886ab57","location":{"address":"450 S Teller St","census_block":"080590118071006","country":"US","cross_street":"","dma":"Denver","formatted_address":"450 S Teller St, Lakewood, CO 80226","locality":"Lakewood","neighborhood":["Belmar District"],"postcode":"80226","region":"CO"},"name":"Menya Noodle Bar","related_places":{},"timezone":"America/Denver"},{"fsq_id":"59677bffe7a237028691dc61","categories":[{"id":13022,"name":"Sports Bar","icon":{"prefix":"https://ss3.4sqi.net/img/categories_v2/nightlife/sportsbar_","suffix":".png"}},{"id":13068,"name":"American Restaurant","icon":{"prefix":"https://ss3.4sqi.net/img/categories_v2/food/default_","suffix":".png"}}],"chains":[],"distance":772,"geocodes":{"main":{"latitude":39.70933,"longitude":-105.075438},"roof":{"latitude":39.709396,"longitude":-105.075503}},"link":"/v3/places/59677bffe7a237028691dc61","location":{"address":"7111 W Alaska Dr","census_block":"080590118071000","country":"US","cross_street":"","dma":"Denver","formatted_address":"7111 W Alaska Dr, Lakewood, CO 80226","locality":"Lakewood","neighborhood":["Belmar District"],"postcode":"80226","region":"CO"},"name":"Bar Louie - Belmar","related_places":{},"timezone":"America/Denver"},{"fsq_id":"5b9eebcf4c9be6002c6f8627","categories":[{"id":13065,"name":"Restaurant","icon":{"prefix":"https://ss3.4sqi.net/img/categories_v2/food/default_","suffix":".png"}}],"chains":[],"distance":889,"geocodes":{"main":{"latitude":39.709999,"longitude":-105.083626},"roof":{"latitude":39.709999,"longitude":-105.083626}},"link":"/v3/places/5b9eebcf4c9be6002c6f8627","location":{"address":"7830 W Alameda Ave","address_extended":"Unit 101","census_block":"080590117014000","country":"US","cross_street":"","dma":"Denver","formatted_address":"7830 W Alameda Ave, Lakewood, CO 80226","locality":"Lakewood","neighborhood":["Lakewood City Commons"],"postcode":"80226","region":"CO"},"name":"First Watch","related_places":{},"timezone":"America/Denver"},{"fsq_id":"560498b5498ee0fbd0ec9b0a","categories":[{"id":13009,"name":"Cocktail Bar","icon":{"prefix":"https://ss3.4sqi.net/img/categories_v2/nightlife/cocktails_","suffix":".png"}},{"id":13072,"name":"Asian Restaurant","icon":{"prefix":"https://ss3.4sqi.net/img/categories_v2/food/asian_","suffix":".png"}},{"id":13379,"name":"Vietnamese Restaurant","icon":{"prefix":"https://ss3.4sqi.net/img/categories_v2/food/vietnamese_","suffix":".png"}}],"chains":[],"distance":953,"geocodes":{"main":{"latitude":39.711547,"longitude":-105.077641},"roof":{"latitude":39.711547,"longitude":-105.077641}},"link":"/v3/places/560498b5498ee0fbd0ec9b0a","location":{"address":"7215 W Alameda Ave","census_block":"080590116023015","country":"US","cross_street":"","dma":"Denver","formatted_address":"7215 W Alameda Ave, Lakewood, CO 80226","locality":"Lakewood","neighborhood":["Belmar District"],"postcode":"80226","region":"CO"},"name":"Pho Belmarasia","related_places":{},"timezone":"America/Denver"},{"fsq_id":"4abfc9a6f964a5202f9220e3","categories":[{"id":13388,"name":"Wings Joint","icon":{"prefix":"https://ss3.4sqi.net/img/categories_v2/food/wings_","suffix":".png"}},{"id":13022,"name":"Sports Bar","icon":{"prefix":"https://ss3.4sqi.net/img/categories_v2/nightlife/sportsbar_","suffix":".png"}}],"chains":[{"id":"24f90bcc-4ae4-458f-b9cf-3d0a5db0aa21","name":"Buffalo Wild Wings"}],"distance":699,"geocodes":{"main":{"latitude":39.708773,"longitude":-105.082201},"roof":{"latitude":39.708764,"longitude":-105.081924}},"link":"/v3/places/4abfc9a6f964a5202f9220e3","location":{"address":"415 S Wadsworth Blvd","address_extended":"Unit B","census_block":"080590117014000","country":"US","dma":"Denver","formatted_address":"415 S Wadsworth Blvd, Lakewood, CO 80226","locality":"Lakewood","neighborhood":["Lakewood Center"],"postcode":"80226","region":"CO"},"name":"Buffalo Wild Wings","related_places":{},"timezone":"America/Denver"},{"fsq_id":"4bc4ee876cccd13a6378ff8b","categories":[{"id":13303,"name":"Mexican Restaurant","icon":{"prefix":"https://ss3.4sqi.net/img/categories_v2/food/mexican_","suffix":".png"}}],"chains":[],"distance":952,"geocodes":{"main":{"latitude":39.711704,"longitude":-105.078466},"roof":{"latitude":39.711704,"longitude":-105.078466}},"link":"/v3/places/4bc4ee876cccd13a6378ff8b","location":{"address":"7301 W Alameda Ave","address_extended":"Unit A","census_block":"080590116023015","country":"US","cross_street":"Teller","dma":"Denver","formatted_address":"7301 W Alameda Ave (Teller), Lakewood, CO 80226","locality":"Lakewood","neighborhood":["Belmar District"],"postcode":"80226","region":"CO"},"name":"El Tapatio Lakewood","related_places":{},"timezone":"America/Denver"},{"fsq_id":"4da743678154fe28a8e2ff2b","categories":[{"id":13145,"name":"Fast Food Restaurant","icon":{"prefix":"https://ss3.4sqi.net/img/categories_v2/food/fastfood_","suffix":".png"}},{"id":13039,"name":"Deli","icon":{"prefix":"https://ss3.4sqi.net/img/categories_v2/food/deli_","suffix":".png"}}],"chains":[{"id":"849b9cf3-71f3-4bf5-b3a6-5f2a8aa8a9e6","name":"Jimmy John's"}],"distance":929,"geocodes":{"main":{"latitude":39.710595,"longitude":-105.083714},"roof":{"latitude":39.710595,"longitude":-105.083714}},"link":"/v3/places/4da743678154fe28a8e2ff2b","location":{"address":"7850 W Alameda Ave","address_extended":"Unit C","census_block":"080590117014000","country":"US","dma":"Denver","formatted_address":"7850 W Alameda Ave, Lakewood, CO 80226","locality":"Lakewood","neighborhood":["Lakewood City Commons"],"postcode":"80226","region":"CO"},"name":"Jimmy John's","related_places":{},"timezone":"America/Denver"},{"fsq_id":"4ac7ac6ff964a520feb820e3","categories":[{"id":13145,"name":"Fast Food Restaurant","icon":{"prefix":"https://ss3.4sqi.net/img/categories_v2/food/fastfood_","suffix":".png"}},{"id":13072,"name":"Asian Restaurant","icon":{"prefix":"https://ss3.4sqi.net/img/categories_v2/food/asian_","suffix":".png"}}],"chains":[{"id":"99e0e6be-564e-4c07-ab3b-9e8d58d053e3","name":"Noodles & Company"}],"distance":904,"geocodes":{"main":{"latitude":39.71064,"longitude":-105.082485},"roof":{"latitude":39.71064,"longitude":-105.082485}},"link":"/v3/places/4ac7ac6ff964a520feb820e3","location":{"address":"7740 W Alameda Ave","address_extended":"Unit B","census_block":"080590117014000","country":"US","dma":"Denver","formatted_address":"7740 W Alameda Ave, Lakewood, CO 80226","locality":"Lakewood","neighborhood":["Lakewood Center"],"postcode":"80226","region":"CO"},"name":"Noodles & Company","related_places":{},"timezone":"America/Denver"},{"fsq_id":"5bdcdebeb25fee002cc1aa37","categories":[{"id":13033,"name":"Bubble Tea Shop","icon":{"prefix":"https://ss3.4sqi.net/img/categories_v2/food/bubble_","suffix":".png"}},{"id":13034,"name":"Café","icon":{"prefix":"https://ss3.4sqi.net/img/categories_v2/food/cafe_","suffix":".png"}},{"id":13065,"name":"Restaurant","icon":{"prefix":"https://ss3.4sqi.net/img/categories_v2/food/default_","suffix":".png"}}],"chains":[],"distance":712,"geocodes":{"main":{"latitude":39.708934,"longitude":-105.075936},"roof":{"latitude":39.708934,"longitude":-105.075936}},"link":"/v3/places/5bdcdebeb25fee002cc1aa37","location":{"address":"7150 W Alaska Dr","census_block":"080590118071006","country":"US","cross_street":"","dma":"Denver","formatted_address":"7150 W Alaska Dr, Lakewood, CO 80226","locality":"Lakewood","neighborhood":["Belmar District"],"postcode":"80226","region":"CO"},"name":"Dcha Cafe","related_places":{},"timezone":"America/Denver"},{"fsq_id":"55e7485d498ed48b4b9aac60","categories":[{"id":13068,"name":"American Restaurant","icon":{"prefix":"https://ss3.4sqi.net/img/categories_v2/food/default_","suffix":".png"}}],"chains":[{"id":"9e31ba8e-d265-4dd3-8201-1047ca73a71f","name":"IHOP"}],"distance":799,"geocodes":{"main":{"latitude":39.709435,"longitude":-105.083075},"roof":{"latitude":39.709435,"longitude":-105.083075}},"link":"/v3/places/55e7485d498ed48b4b9aac60","location":{"address":"389 S Wadsworth Blvd","census_block":"080590117014000","country":"US","cross_street":"","dma":"Denver","formatted_address":"389 S Wadsworth Blvd, Lakewood, CO 80226","locality":"Lakewood","neighborhood":["Lakewood Center"],"postcode":"80226","region":"CO"},"name":"IHOP","related_places":{},"timezone":"America/Denver"},{"fsq_id":"4c4a05f5f7cc1b8d145ad53d","categories":[{"id":13297,"name":"Latin American Restaurant","icon":{"prefix":"https://ss3.4sqi.net/img/categories_v2/food/latinamerican_","suffix":".png"}},{"id":13307,"name":"Tex-Mex Restaurant","icon":{"prefix":"https://ss3.4sqi.net/img/categories_v2/food/mexican_","suffix":".png"}},{"id":13338,"name":"Seafood Restaurant","icon":{"prefix":"https://ss3.4sqi.net/img/categories_v2/food/seafood_","suffix":".png"}}],"chains":[],"distance":969,"geocodes":{"main":{"latitude":39.696222,"longitude":-105.071504},"roof":{"latitude":39.696222,"longitude":-105.071504}},"link":"/v3/places/4c4a05f5f7cc1b8d145ad53d","location":{"address":"6757 W Mississippi Ave","census_block":"080590118062029","country":"US","cross_street":"Pierce","dma":"Denver","formatted_address":"6757 W Mississippi Ave (Pierce), Lakewood, CO 80226","locality":"Lakewood","postcode":"80226","region":"CO"},"name":"Las Cazuelas","related_places":{},"timezone":"America/Denver"},{"fsq_id":"4bc18d58b492d13aad41a660","categories":[{"id":13068,"name":"American Restaurant","icon":{"prefix":"https://ss3.4sqi.net/img/categories_v2/food/default_","suffix":".png"}}],"chains":[{"id":"4b1ad9f0-3b43-4709-a1ae-bd522e7e603c","name":"Village Inn"}],"distance":952,"geocodes":{"main":{"latitude":39.711546,"longitude":-105.079457},"roof":{"latitude":39.711534,"longitude":-105.079326}},"link":"/v3/places/4bc18d58b492d13aad41a660","location":{"address":"7381 W Alameda Ave","census_block":"080590116023015","country":"US","cross_street":"Alameda and Wadsworth","dma":"Denver","formatted_address":"7381 W Alameda Ave (Alameda and Wadsworth), Lakewood, CO 80226","locality":"Lakewood","neighborhood":["Belmar District"],"postcode":"80226","region":"CO"},"name":"Village Inn","related_places":{},"timezone":"America/Denver"}],"context":{"geo_bounds":{"circle":{"center":{"latitude":39.703014,"longitude":-105.078792},"radius":1000}}}}